City,Lat,Long,Max Temp,Humidity,Cloudiness,Country,Date,Windspeed
joshimath,30.57,79.57,71.94,46,30,IN,1600140768,4.85
pasni,25.26,63.47,87.39,30,100,PK,1600140769,17.45
cidreira,-30.18,-50.21,51.82,62,90,BR,1600140769,4.21
tuktoyaktuk,69.45,-133.04,32,90,75,CA,1600140769,9.17
saint-philippe,-21.36,55.77,63,59,40,RE,1600140769,6.93
katsuura,35.13,140.3,82,69,75,JP,1600140770,3.36
tiksi,71.69,128.87,44.98,79,42,RU,1600140770,7.11
kaitangata,-46.28,169.85,44.01,72,100,NZ,1600140770,17.0
ushuaia,-54.8,-68.3,35.6,90,40,AR,1600140755,18.34
necochea,-38.55,-58.74,46.99,55,0,AR,1600140757,10.0
sumenep,-7.02,113.87,86.49,46,83,ID,1600140771,7.18
punta arenas,-53.15,-70.92,35.6,77,37,CL,1600140771,24.16
tuatapere,-46.13,167.68,42.01,85,100,NZ,1600140771,11.01
castro,-42.47,-73.77,48.99,92,100,CL,1600140771,1.01
vaini,-21.2,-175.2,77,73,75,TO,1600140772,9.17
xining,36.62,101.77,57.02,49,55,CN,1600140772,3.89
vanimo,-2.67,141.3,81.88,79,100,PG,1600140772,12.59
honningsvag,70.98,25.97,46.4,93,75,NO,1600140772,2.24
pevek,69.7,170.31,42.75,79,100,RU,1600140552,5.97
sisimiut,66.94,-53.67,35.19,71,97,GL,1600140773,11.12
lillehammer,61.11,10.47,50,91,100,NO,1600140773,1.97
pisco,-13.7,-76.22,62.6,82,82,PE,1600140773,4.7
hami,42.8,93.45,74.1,17,0,CN,1600140686,10.11
souillac,-20.52,57.52,68,68,75,MU,1600140774,11.41
yar-sale,66.83,70.83,48.85,84,100,RU,1600140616,17.34
medeiros neto,-17.37,-40.22,64.89,92,0,BR,1600140774,5.23
barcelos,-0.97,-62.92,75.92,84,87,BR,1600140774,1.54
hobart,-42.88,147.33,62.6,39,40,AU,1600140718,18.34
beyneu,45.32,55.2,65.73,57,0,KZ,1600140775,16.8
boca do acre,-8.75,-67.4,74.21,89,82,BR,1600140775,2.73
dikson,73.51,80.55,43.99,86,100,RU,1600140775,16.15
tarauaca,-8.16,-70.77,73.71,95,79,BR,1600140775,2.35
narsaq,60.92,-46.05,51.8,34,100,GL,1600140776,24.16
puerto ayora,-0.74,-90.35,66.99,92,68,EC,1600140776,7.0
nikolskoye,59.7,30.79,48,93,0,RU,1600140776,4.47
jamestown,42.1,-79.24,46.99,81,1,US,1600140601,2.55
arraial do cabo,-22.97,-42.03,71.33,83,41,BR,1600140777,7.96
victoria,-4.62,55.45,80.6,83,75,SC,1600140777,14.99
hithadhoo,-0.6,73.08,81.41,67,48,MV,1600140718,3.94
aasiaat,68.71,-52.87,23.11,87,0,GL,1600140777,15.52
wahiawa,21.5,-158.02,87.8,54,1,US,1600140491,16.11
albany,-35.02,117.89,66.2,72,40,AU,1600140778,8.05
cherskiy,68.75,161.3,51.4,55,21,RU,1600140778,7.18
faanui,-16.48,-151.75,78.51,73,93,PF,1600140778,12.15
portland,-38.33,141.6,57,65,30,AU,1600140613,8.21
itaituba,-4.28,-55.98,81.7,49,59,BR,1600140779,1.05
rikitea,-23.12,-134.97,73.85,84,59,PF,1600140779,10.22
soyo,-6.13,12.37,72.72,85,11,AO,1600140779,9.13
carnarvon,-24.87,113.63,73.4,83,2,AU,1600140779,13.87
saint george,32.38,-64.68,82.4,83,75,BM,1600140780,19.46
lockport,41.59,-88.06,63,87,1,US,1600140840,3.36
alofi,-19.06,-169.92,77,73,39,NU,1600140840,16.11
ambon,-3.7,128.18,82.4,74,75,ID,1600140815,8.05
ribeira grande,38.52,-28.7,66.51,64,100,PT,1600140841,14.03
tawang,27.58,91.87,64.17,68,78,IN,1600140841,4.94
bac lieu,9.29,105.72,85.03,69,100,VN,1600140841,8.66
kapaa,22.08,-159.32,84.2,62,20,US,1600140841,11.41
srednekolymsk,67.45,153.68,51.87,59,99,RU,1600140842,11.72
east london,-33.02,27.91,56.7,62,2,ZA,1600140842,14.16
puri,19.8,85.85,86,94,40,IN,1600140842,8.05
talnakh,69.49,88.4,51.8,93,100,RU,1600140843,11.18
peto,20.13,-88.92,75.47,97,97,MX,1600140607,1.88
erenhot,43.65,111.98,66.04,22,0,CN,1600140843,16.33
longyearbyen,78.22,15.64,33.8,93,75,SJ,1600140843,5.82
cape town,-33.93,18.42,44.6,81,4,ZA,1600140766,1.12
ornskoldsvik,63.29,18.72,41,86,25,SE,1600140844,12.75
tura,64.28,100.25,55.06,71,100,RU,1600140844,2.26
najran,17.49,44.13,75.2,25,20,SA,1600140844,1.05
dublin,37.7,-121.94,68,63,90,US,1600140564,10.29
mount isa,-20.73,139.5,87.8,18,0,AU,1600140845,14.99
saskylakh,71.92,114.08,55.69,50,65,RU,1600140845,2.3
bandarbeyla,9.49,50.81,83.01,62,0,SO,1600140845,26.26
kavieng,-2.57,150.8,83.89,76,85,PG,1600140845,12.3
foumban,5.73,10.9,62.62,99,100,CM,1600140846,1.74
kodiak,57.79,-152.41,59,62,1,US,1600140745,8.05
pachperwa,27.52,82.65,84.43,79,70,IN,1600140846,11.05
norman wells,65.28,-126.83,44.6,65,75,CA,1600140620,6.93
ciudad bolivar,8.12,-63.55,80.31,72,1,VE,1600140698,9.13
hasaki,35.73,140.83,81,78,75,JP,1600140847,10.29
yellowknife,62.46,-114.35,43,60,75,CA,1600140847,8.05
isangel,-19.55,169.27,78.8,65,75,VU,1600140847,17.22
geghamasar,40.31,45.68,57.63,61,0,AM,1600140847,3.09
la asuncion,11.03,-63.86,81.86,83,45,VE,1600140848,11.59
skelleftea,64.75,20.95,44.6,75,19,SE,1600140569,9.17
manta,-0.95,-80.73,75.2,83,90,EC,1600140848,9.17
sur,22.57,59.53,85.62,55,85,OM,1600140848,2.19
busselton,-33.65,115.33,73.99,38,0,AU,1600140849,10.92
baruun-urt,46.68,113.28,60.8,42,0,MN,1600140849,7.02
cabo san lucas,22.89,-109.91,86,77,71,MX,1600140687,1.99
noumea,-22.28,166.46,78.8,54,75,NC,1600140849,11.41
de aar,-30.65,24.01,43.63,57,0,ZA,1600140849,7.76
santa cruz de la palma,28.68,-17.76,75.2,73,100,ES,1600140850,10.29
khatanga,71.97,102.5,54.84,64,67,RU,1600140850,4.32
ambilobe,-13.2,49.05,70.81,56,0,MG,1600140850,4.56
teahupoo,-17.83,-149.27,82.4,61,75,PF,1600140850,4.7
mareeba,-17,145.43,79,61,0,AU,1600140851,7.0
ratnagiri,16.98,73.3,80.15,83,100,IN,1600140851,5.97
giyani,-23.3,30.72,66.97,32,0,ZA,1600140851,4.81
port alfred,-33.59,26.89,53.62,73,36,ZA,1600140851,11.41
half moon bay,37.46,-122.43,64.4,87,40,US,1600140852,4.7
bethel,41.37,-73.41,57.2,50,1,US,1600140912,6.93
chernyshevskiy,63.01,112.47,55.67,56,55,RU,1600140912,4.12
saint-augustin,51.23,-58.65,49.23,61,25,CA,1600140912,18.3
sulangan,11.14,123.72,81.16,76,83,PH,1600140913,3.71
bocaiuva,-17.11,-43.81,68,45,0,BR,1600140913,6.76
lakatoro,-16.1,167.42,80.6,78,75,VU,1600140913,11.41
san patricio,19.22,-104.7,81.07,86,95,MX,1600140913,7.29
college,64.86,-147.8,51.8,71,75,US,1600140914,2.51
neuquen,-38.95,-68.06,46.4,61,0,AR,1600140914,5.59
iqaluit,63.75,-68.51,37.4,55,75,CA,1600140654,11.41
new norfolk,-42.78,147.06,62.6,39,40,AU,1600140914,18.34
alibag,18.64,72.88,80.6,88,75,IN,1600140914,5.82
areia branca,-4.96,-37.14,73.8,77,8,BR,1600140915,19.8
cassilandia,-19.11,-51.73,70.88,31,0,BR,1600140915,1.57
husavik,66.04,-17.34,32,79,0,IS,1600140915,3.36
port hedland,-20.32,118.57,96.8,19,86,AU,1600140915,19.46
bluff,-46.6,168.33,42.01,85,100,NZ,1600140916,11.01
bayan,29.3,48.05,80.6,24,5,KW,1600140916,9.24
gamba,-2.65,10,73.71,85,93,GA,1600140916,4.41
olafsvik,64.89,-23.71,48.07,79,75,IS,1600140917,7.83
novikovo,51.15,37.89,55.44,90,21,RU,1600140917,9.75
ca mau,9.18,105.15,84.96,73,100,VN,1600140917,7.14
barrow,71.29,-156.79,37.4,93,90,US,1600140918,12.75
caravelas,-17.71,-39.25,70.48,92,0,BR,1600140918,5.37
aklavik,68.22,-135.01,35.6,93,75,CA,1600140919,4.7
havre-saint-pierre,50.23,-63.6,46.4,70,1,CA,1600140919,14.99
pereslavl-zalesskiy,56.74,38.86,45.34,92,6,RU,1600140919,9.8
qaanaaq,77.48,-69.36,25.86,89,77,GL,1600140920,7.2
miri,4.41,114.01,84.2,74,40,MY,1600140920,3.36
kilindoni,-7.91,39.67,77.41,78,58,TZ,1600140920,10.04
hofn,64.25,-15.21,47.07,72,82,IS,1600140921,8.72
marawi,18.48,31.82,89.35,13,66,SD,1600140921,9.51
wattegama,6.8,81.48,86,74,75,LK,1600140921,12.75
ilulissat,69.22,-51.1,30.2,30,0,GL,1600140682,18.34
port elizabeth,-33.92,25.57,51.8,81,20,ZA,1600140922,13.87
ahipara,-35.17,173.17,59.95,86,29,NZ,1600140922,16.55
rio grande,-32.03,-52.1,49.82,71,66,BR,1600140923,10.83
hermanus,-34.42,19.23,41,94,33,ZA,1600140923,6.51
sitka,57.05,-135.33,60.8,59,1,US,1600140923,3.44
salalah,17.02,54.09,77,73,75,OM,1600140924,6.93
ginir,7.13,40.7,60.55,78,79,ET,1600140924,7.27
taltal,-25.4,-70.48,53.11,78,27,CL,1600140924,1.1
flinders,-34.58,150.86,73,67,14,AU,1600140924,5.01
ancud,-41.87,-73.82,48.99,97,99,CL,1600140692,7.0
keti bandar,24.14,67.45,86.67,74,91,PK,1600140925,6.78
san quintin,30.48,-115.95,75,64,0,MX,1600140925,8.9
atuona,-9.8,-139.03,78.55,72,0,PF,1600140801,16.75
bredasdorp,-34.53,20.04,41,93,52,ZA,1600140925,4.7
basco,20.45,121.97,84.65,79,53,PH,1600140926,14.18
okha,53.57,142.95,69.84,61,90,RU,1600140926,11.23
kargasok,59.06,80.86,55.51,75,0,RU,1600140986,10.42
fairbanks,64.84,-147.72,51.8,71,20,US,1600140855,4.7
san cristobal,-0.9,-89.62,66.96,87,28,EC,1600140986,12.41
muzhi,65.37,64.67,50.68,90,100,RU,1600140987,8.41
balaguer,41.79,0.81,68,60,50,ES,1600140987,8.05
avarua,-21.21,-159.78,73.4,69,51,CK,1600140774,11.41
vanavara,60.34,102.28,56.53,57,99,RU,1600140987,6.4
acarau,-2.89,-40.12,76.23,81,65,BR,1600140988,16.82
trapani,37.83,12.67,77,83,5,IT,1600140988,5.82
esperance,-33.87,121.9,73.4,46,2,AU,1600140988,10.29
chokurdakh,70.63,147.92,46.4,78,100,RU,1600140988,9.44
yulara,-25.24,130.99,82.4,24,0,AU,1600140989,13.87
arlit,18.74,7.39,91.76,15,0,NE,1600140989,4.32
dwarka,22.24,68.97,84.2,83,76,IN,1600140989,15.1
iquique,-20.22,-70.14,60.8,72,90,CL,1600140989,6.93
havelock,-41.28,173.77,55,75,62,NZ,1600140989,3.0
ingham,-18.65,146.17,75.47,66,36,AU,1600140990,13.06
lianran,24.92,102.48,73,83,75,CN,1600140990,11.18
piacabucu,-10.41,-36.43,73.13,86,78,BR,1600140990,10.71
lalibela,12.03,39.03,57.96,80,31,ET,1600140990,2.55
mar del plata,-38,-57.56,46.99,86,0,AR,1600140754,3.36
aldan,58.6,125.39,49.26,69,100,RU,1600140991,9.13
pangnirtung,66.15,-65.71,35.01,78,51,CA,1600140991,4.65
lichuan,30.3,108.85,72.79,72,86,CN,1600140991,1.59
kruisfontein,-34,24.73,50,74,69,ZA,1600140992,7.11
makhachkala,42.98,47.5,69.8,73,0,RU,1600140992,4.47
georgetown,-7.93,-14.42,73.4,73,75,SH,1600140992,16.11
challans,46.84,-1.87,64,87,93,FR,1600140992,2.24
bethanien,-26.5,17.16,39.76,63,0,NA,1600140992,1.05
port hardy,50.7,-127.42,57.2,87,90,CA,1600140993,3.91
tubuala,9.52,-79.03,78.8,94,40,PA,1600140993,2.24
thompson,55.74,-97.86,35.6,100,40,CA,1600140993,2.24
kanash,55.51,47.5,48.2,93,20,RU,1600140993,11.18
chuy,-33.7,-53.46,43.41,81,0,UY,1600140702,4.54
miandoab,36.97,46.1,64.4,31,0,IR,1600140994,9.17
moindou,-21.69,165.68,78.8,54,75,NC,1600140994,11.41
mahebourg,-20.41,57.7,68,68,75,MU,1600140994,11.41
kindu,-2.95,25.95,71.02,96,96,CD,1600140995,1.97
lebu,-37.62,-73.65,50.22,92,9,CL,1600140995,18.1
lavrentiya,65.58,-171,44.76,96,100,RU,1600140995,8.3
ihtiman,42.43,23.82,57,67,24,BG,1600140995,1.59
kyshtovka,56.55,76.63,55.58,75,90,RU,1600140996,10.29
verkhnyaya inta,65.98,60.31,46.53,85,90,RU,1600140996,6.4
kieta,-6.22,155.63,85.33,67,80,PG,1600140996,6.53
tessalit,20.2,1.01,88.77,20,0,ML,1600140996,3.71
ponta do sol,17.2,-25.09,77,94,75,CV,1600140997,3.36
nelson bay,-32.72,152.15,73.99,53,40,AU,1600140997,10.29
oistins,13.07,-59.53,82.4,78,20,BB,1600140997,14.99
rawson,-43.3,-65.1,59.85,47,63,AR,1600140997,14.94
oyama,36.3,139.8,82.99,61,75,JP,1600140998,11.41
san jose de rio tinto,14.93,-85.7,72.77,84,100,HN,1600141058,1.86
port hawkesbury,45.62,-61.35,57,71,90,CA,1600141058,8.05
bayangol,50.7,103.47,42.26,87,100,RU,1600141058,2.77
atid,46.45,25.05,57.2,93,0,RO,1600141059,1.12
les cayes,18.2,-73.75,79.5,76,100,HT,1600141059,3.71
lorengau,-2.02,147.27,83.89,79,98,PG,1600141059,10.83
namatanai,-3.67,152.43,84.74,71,87,PG,1600141059,9.31
puerto escondido,15.85,-97.07,75.2,73,90,MX,1600141050,3.58
severnyy,50.68,36.55,55.4,82,0,RU,1600141060,6.71
yueyang,29.33,113.09,68.14,96,100,CN,1600141060,0.36
gwalior,26.22,78.18,86,79,40,IN,1600141060,3.36
arrecife,28.96,-13.55,73.4,83,100,ES,1600141060,18.34
charters towers,-20.1,146.27,84.02,22,0,AU,1600141061,14.34
shakawe,-18.37,21.85,63.07,27,0,BW,1600141061,5.59
morehead,-8.71,141.64,86.79,59,96,PG,1600141061,11.32
tual,-5.67,132.75,78.78,78,80,ID,1600141061,16.49
niono,14.25,-5.99,79.18,69,0,ML,1600141062,7.34
kaeo,-35.1,173.78,64,3,59,NZ,1600140836,11.99
buala,-8.14,159.59,80.8,82,100,SB,1600141062,14.92
ngunguru,-35.62,174.5,64,3,48,NZ,1600141062,11.99
jaisalmer,26.91,70.92,92.77,48,26,IN,1600141063,10.8
hilo,19.73,-155.09,80.6,69,90,US,1600141063,6.93
bambous virieux,-20.34,57.76,68,68,75,MU,1600141063,11.41
kailua,21.4,-157.74,82.4,58,20,US,1600141063,9.17
hambantota,6.12,81.12,86,74,75,LK,1600141064,12.75
san vicente,-26.62,-54.13,56.68,85,99,AR,1600141064,5.17
quthing,-30.4,27.7,40.69,49,0,LS,1600141064,0.25
florence,34.05,-79.67,73.4,88,1,US,1600141064,8.05
canmore,51.08,-115.35,45,87,90,CA,1600141064,4.7
vao,-22.67,167.48,69.22,76,2,NC,1600141065,17.81
leningradskiy,69.38,178.42,40.86,94,100,RU,1600141065,10.27
dhidhdhoo,6.88,73.1,82.06,77,78,MV,1600141065,13.49
hit,33.64,42.83,87.35,24,0,IQ,1600141065,10.38
atar,20.52,-13.05,92.37,29,74,MR,1600141066,5.93
kouroussa,10.65,-9.88,70.56,95,44,GN,1600141066,1.57
evansville,37.97,-87.56,69.01,77,1,US,1600141066,8.05
bengkulu,-3.8,102.27,82.6,77,12,ID,1600141066,8.99
chiang klang,19.29,100.86,82.4,78,20,TH,1600141067,3.36
sao miguel do araguaia,-13.28,-50.16,77.18,41,25,BR,1600141067,7.65
changping,40.22,116.22,70,88,90,CN,1600141067,6.71
sabha,27.04,14.43,75.29,38,0,LY,1600141068,9.71
nanga eboko,4.68,12.37,68.86,98,100,CM,1600140889,3.04
suoyarvi,62.08,32.35,43.32,87,0,RU,1600141068,8.68
great yarmouth,52.61,1.73,59,93,0,GB,1600141049,1.12
boueni,-12.9,45.08,75.2,83,75,YT,1600141068,8.05
meulaboh,4.14,96.13,85.41,63,86,ID,1600141069,2.91
salaya,22.32,69.6,85.15,79,78,IN,1600141069,13.38
guerrero negro,27.98,-114.06,79.38,51,0,MX,1600141069,11.3
jiuquan,39.74,98.52,65.53,23,0,CN,1600141069,5.5
karla,59.37,24.93,55.4,93,75,EE,1600141069,3.36
bhadrachalam,17.67,80.88,85.62,78,17,IN,1600141130,2.95
butaritari,3.07,172.79,84.54,73,19,KI,1600141130,17.43
sindor,62.86,51.89,47.19,91,100,RU,1600141130,7.58
geraldton,-28.77,114.6,75.2,57,0,AU,1600141130,8.05
wittmund,53.57,7.78,62.6,82,75,DE,1600141131,2.24
champasak,14.75,106,84.2,74,20,LA,1600141131,4.7
port-gentil,-0.72,8.78,74.84,86,97,GA,1600141131,10.58
weinan,34.5,109.51,77,53,92,CN,1600141131,8.95
martinez,38.02,-122.13,73.4,49,90,US,1600141132,10.29
salinopolis,-0.61,-47.36,78.51,86,77,BR,1600141132,10.22
muriti,-1.98,32.92,64.4,88,20,TZ,1600141132,5.82
leh,34.17,77.58,53.44,41,1,IN,1600141133,6.46
clyde river,70.47,-68.59,32,90,1,CA,1600141133,5.82
porto novo,17.02,-25.06,77,94,75,CV,1600141133,3.36
potosi,0.81,-77.57,44.29,89,37,CO,1600141133,2.44
maceio,-9.67,-35.74,69.8,100,75,BR,1600141133,2.24
oum hadjer,13.3,19.7,76.5,81,37,TD,1600141134,6.58
merauke,-8.47,140.33,82.13,71,82,ID,1600141134,19.77
westport,53.8,-9.52,57.99,92,60,IE,1600141134,4.25
provideniya,64.38,-173.3,51.8,76,40,RU,1600141134,13.42
samarai,-10.62,150.67,79.57,86,76,PG,1600141135,15.75
son la,21.32,103.9,71.96,93,98,VN,1600141135,0.72
aranda de duero,41.67,-3.69,62.65,73,100,ES,1600141135,5.5
eureka,40.8,-124.16,62.01,86,1,US,1600141135,2.57
horodyshche,49.28,31.45,56.95,92,2,UA,1600141135,5.77
asfi,32.3,-9.24,66.54,88,0,MA,1600141136,11.9
kyra,49.58,111.98,52.59,63,100,RU,1600141136,9.89
manama,26.22,50.58,91.4,70,0,BH,1600141135,2.24
liuzhou,24.31,109.39,88.07,65,28,CN,1600141136,5.37
cabinda,-5.55,12.2,73.44,83,7,AO,1600141137,5.88
tabas,33.6,56.92,71.6,21,0,IR,1600141137,2.24
ballina,-28.87,153.57,73.4,60,0,AU,1600141137,16.11
murdochville,48.96,-65.5,39.18,75,0,CA,1600141137,16.24
sola,-13.88,167.55,86,55,40,VU,1600141138,11.41
trairi,-3.28,-39.27,76.73,77,52,BR,1600141138,12.75
cockburn town,21.46,-71.14,83.37,77,100,TC,1600141084,12.46
riyadh,24.69,46.72,82.4,18,0,SA,1600141138,5.82
nishihara,26.18,127.76,86,66,75,JP,1600140894,4.7
bukavu,-2.51,28.86,63.03,66,0,CD,1600141138,1.19
gazanjyk,39.24,55.52,74.12,39,0,TM,1600141139,1.86
fortuna foothills,32.66,-114.41,96.8,18,1,US,1600141045,4.7
broscauti,47.95,26.45,61,72,0,RO,1600141139,5.82
balkanabat,39.51,54.37,75.61,46,0,TM,1600141139,5.57
ape,57.54,26.69,58.32,97,96,LV,1600141140,6.55
benin,6.33,5.63,72.12,98,99,NG,1600141140,2.55
comodoro rivadavia,-45.87,-67.5,55.4,50,88,AR,1600141140,20.8
itarema,-2.92,-39.92,76.53,80,53,BR,1600141140,16.75
amahai,-3.33,128.92,80.15,76,58,ID,1600141141,11.97
rocha,-34.48,-54.33,39.49,84,0,UY,1600140935,2.71
ulaangom,49.98,92.07,57.63,39,21,MN,1600141141,3.49
vyazemskiy,47.54,134.75,56.68,89,100,RU,1600141201,3.94
camacha,33.08,-16.33,68,88,20,PT,1600141202,1.34
oranjemund,-28.55,16.43,52.77,80,0,NA,1600141202,8.75
luderitz,-26.65,15.16,52.16,78,0,NA,1600141202,14.56
lompoc,34.64,-120.46,57.2,87,1,US,1600141202,3.36
coahuayana,18.73,-103.68,79.41,88,99,MX,1600141203,0.31
oster,50.95,30.88,53.6,100,1,UA,1600141203,2.24
pudozh,61.81,36.53,44.91,91,1,RU,1600141203,6.38
verkhoyansk,67.54,133.38,49.57,69,89,RU,1600141203,8.28
ostrovnoy,68.05,39.51,48.06,84,100,RU,1600141204,17.65
satipo,-11.25,-74.64,69.44,80,6,PE,1600141204,2.37
schoneiche,52.47,13.68,66.99,93,87,DE,1600141204,4.7
tiarei,-17.53,-149.33,82.4,61,75,PF,1600141205,4.7
upernavik,72.79,-56.15,26.35,79,0,GL,1600141205,6.91
constitucion,23.99,-104.67,63,81,100,MX,1600141205,5.01
vangaindrano,-23.35,47.6,66.85,89,90,MG,1600141206,5.91
colquechaca,-18.67,-66.02,32.92,100,68,BO,1600141206,4.63
dudinka,69.41,86.18,51.8,93,100,RU,1600141206,11.18
abnub,27.27,31.15,71.73,68,0,EG,1600141206,6.29
ajdabiya,30.76,20.23,79.2,34,3,LY,1600141206,15.08
henties bay,-22.12,14.28,48,88,6,NA,1600141207,8.03
zhezkazgan,47.8,67.71,60.8,41,90,KZ,1600141207,15.66
kununurra,-15.77,128.73,93.2,32,75,AU,1600141207,11.41
pochutla,15.74,-96.47,75.99,89,98,MX,1600141208,2.48
palu,-0.89,119.87,78.24,81,95,ID,1600141208,1.21
aitape,-3.14,142.35,83.08,75,100,PG,1600141208,5.35
horqueta,-23.34,-57.06,61.18,86,59,PY,1600141208,6.24
sinnamary,5.38,-52.95,78.6,82,5,GF,1600141209,3.29
bocas del toro,9.33,-82.25,66,98,100,PA,1600140925,3.6
sibolga,1.74,98.78,86.83,56,88,ID,1600141209,4.79
cap malheureux,-19.98,57.61,68,57,58,MU,1600141209,8.01
waddan,29.16,16.14,70.92,66,0,LY,1600141210,1.79
tupiza,-21.45,-65.72,49.01,70,100,BO,1600141210,4.41
beringovskiy,63.05,179.32,47.25,85,46,RU,1600141210,2.1
torbay,47.67,-52.73,61,87,90,CA,1600141211,16.11
owando,-0.48,15.9,70.65,98,99,CG,1600141211,2.15
antofagasta,-23.65,-70.4,57.2,82,90,CL,1600141211,3.36
yilan,46.32,129.57,67.71,67,19,CN,1600141212,5.64
san luis,-33.3,-66.34,54.97,36,0,AR,1600141212,15.17
chumikan,54.72,135.31,64.45,73,100,RU,1600141212,4.88
bloomingdale,27.89,-82.24,78.8,100,90,US,1600141212,3.36
zhigansk,66.77,123.37,52.16,63,32,RU,1600141213,14.07
sakakah,29.97,40.21,82.4,14,0,SA,1600141213,0.63
virar,19.47,72.8,80.6,88,75,IN,1600141213,5.82
mucurapo,10.67,-61.53,79,88,20,TT,1600141213,6.62
russell,-35.26,174.12,64,3,43,NZ,1600141213,11.99
ogawa,36.05,139.27,78.8,69,40,JP,1600141214,6.93
ugoofaaru,5.67,73,82.27,77,100,MV,1600141214,11.1
srandakan,-7.94,110.25,84.54,54,37,ID,1600141214,13.27
sakaraha,-22.9,44.53,70.23,59,51,MG,1600141215,4.07
wencheng,33.06,113.8,74.44,74,96,CN,1600141275,3.65
sorong,-0.88,131.25,81.41,84,55,ID,1600141275,11.39
winneba,5.35,-0.62,75.2,94,75,GH,1600141276,10.29
mahuva,21.09,71.76,83.7,77,93,IN,1600141276,9.53
tazovskiy,67.47,78.7,52.23,77,99,RU,1600141276,15.95
santona,43.44,-3.46,66.99,93,100,ES,1600141276,3.36
umm lajj,25.02,37.27,92.55,28,0,SA,1600141276,10.13
newport,41.49,-71.31,61,44,1,US,1600141277,16.11
ucluelet,48.93,-125.55,61,88,100,CA,1600141210,10.4
severo-kurilsk,50.68,156.12,53.51,67,2,RU,1600141277,14.2
maribo,54.78,11.5,63,86,100,DK,1600141278,4.52
weyburn,49.67,-103.85,61.36,48,100,CA,1600141278,8.81
adrar,25.75,-1,91.51,20,10,DZ,1600141278,14.9
amudat,1.95,34.95,70.18,66,47,UG,1600141278,2.19
los llanos de aridane,28.66,-17.92,75.2,73,100,ES,1600141279,10.29
mount gambier,-37.83,140.77,60.8,63,75,AU,1600141279,5.82
tucuman,-26.82,-65.22,59,47,89,AR,1600141212,3.36
dolores,-36.31,-57.68,42.48,72,0,AR,1600141279,7.9
idritsa,56.33,28.9,58.84,93,100,RU,1600141279,7.83
kavaratti,10.57,72.64,82.4,83,20,IN,1600141280,13.87
itoman,26.12,127.67,86,74,40,JP,1600141280,10.29
huancabamba,-5.24,-79.45,57.45,73,75,PE,1600141280,7.02
carbonia,39.17,8.52,72,83,5,IT,1600141280,5.82
lethem,3.38,-59.8,77.85,79,81,GY,1600141281,4.25
richards bay,-28.78,32.04,65.95,75,100,ZA,1600141281,5.7
tasiilaq,65.61,-37.64,24.75,95,48,GL,1600141281,4.32
opuwo,-18.06,13.84,54.16,41,0,NA,1600141281,3.31
ouadda,8.08,22.4,68.22,96,100,CF,1600141282,1.07
cheremukhovo,60.35,59.99,46.58,92,100,RU,1600141282,0.6
loandjili,-4.76,11.86,75.2,83,40,CG,1600141282,6.93
batagay,67.63,134.63,50.22,74,83,RU,1600141282,6.87
sao filipe,14.9,-24.5,79,81,97,CV,1600141283,6.73
korla,41.76,86.15,72.1,20,92,CN,1600141283,6.46
dharchula,29.85,80.53,76.89,60,31,IN,1600141283,4.45
kahului,20.89,-156.47,86,55,40,US,1600141284,18.34
martaban,16.53,97.61,86.95,68,32,MM,1600141284,3.91
denia,38.84,0.11,73,79,61,ES,1600141284,3.0
tautira,-17.73,-149.15,82.4,61,75,PF,1600141284,4.7
nouadhibou,20.93,-17.03,82.71,57,49,MR,1600141284,17.9
fergus falls,46.28,-96.08,71.01,64,1,US,1600141285,14.99
waingapu,-9.66,120.26,87.1,42,63,ID,1600141285,15.17
santa maria,16.6,-22.9,78.8,88,40,CV,1600141285,10.29
ketchikan,55.34,-131.65,62.6,63,1,US,1600141285,11.41
acopiara,-6.1,-39.45,75.2,60,68,BR,1600141261,5.32
cayenne,4.93,-52.33,77,100,16,GF,1600141286,5.5
coolum beach,-26.53,153.1,73.99,66,0,AU,1600141286,5.01
moree,-29.47,149.85,77,31,40,AU,1600141286,12.75
wukari,7.85,9.78,70.84,98,100,NG,1600141286,4.0
olinda,-8.01,-34.86,77,83,75,BR,1600141287,8.05
scarsdale,41.01,-73.78,62.01,54,1,US,1600141287,14.99
bathsheba,13.22,-59.52,82.4,78,20,BB,1600141347,14.99
granard,53.77,-7.5,55.78,96,93,IE,1600141347,7.45
shimoda,34.67,138.95,78.8,74,75,JP,1600141348,11.41
inndyr,67.03,14.03,48.2,81,75,NO,1600141348,27.51
douglas,41.3,-96.17,68,72,1,US,1600141348,5.82
valparaiso,-33.04,-71.63,44.6,100,40,CL,1600141321,2.24
chapais,49.78,-74.85,37.4,86,1,CA,1600141348,4.7
berlevag,70.86,29.09,46.4,93,75,NO,1600141349,2.24
emba,48.83,58.14,54.14,58,22,KZ,1600141349,15.55
mackay,-21.15,149.2,79,69,2,AU,1600141349,19.46
urdoma,61.75,48.54,45.46,93,100,RU,1600141246,8.16
haimen,23.19,116.61,87.8,66,40,CN,1600141350,8.95
margate,-30.86,30.37,60.19,78,100,ZA,1600141350,13.51
havoysund,71,24.66,44.6,87,40,NO,1600141350,9.17
mitsamiouli,-11.38,43.28,76.37,71,69,KM,1600141350,5.68
grand gaube,-20.01,57.66,68,57,63,MU,1600141351,8.01
deputatskiy,69.3,139.9,47.03,59,5,RU,1600141351,8.5
bubaque,11.28,-15.83,80.35,86,100,GW,1600141351,9.37
palmer,42.16,-72.33,55.4,54,75,US,1600141351,10.29
beloha,-25.17,45.05,74.16,62,98,MG,1600141352,6.17
mbala,-8.84,31.37,60.75,66,29,ZM,1600141352,5.82
aleksandrovsk-sakhalinskiy,50.9,142.16,66.07,56,32,RU,1600141352,14.34
shahreza,32.03,51.88,65.61,27,0,IR,1600141352,3.09
rio gallegos,-51.62,-69.22,39.2,64,11,AR,1600141286,31.09
talcahuano,-36.72,-73.12,51.8,87,0,CL,1600141353,6.93
touros,-5.2,-35.46,69.8,94,40,BR,1600141353,3.36
haines junction,60.75,-137.51,41.31,64,10,CA,1600141353,0.74
williston,48.15,-103.62,64.4,67,1,US,1600141098,15.1
poum,-20.23,164.02,74.07,73,21,NC,1600141354,12.82
atambua,-9.11,124.89,86.13,39,31,ID,1600141354,3.74
bolshoy lug,52.08,104.09,46.4,100,90,RU,1600141354,11.18
bologoye,57.88,34.11,46.89,98,19,RU,1600141354,8.34
carutapera,-1.2,-46.02,74.95,93,31,BR,1600141355,5.64
hochstadt,49.25,8.21,62.01,83,54,DE,1600141355,1.01
karasjok,69.47,25.51,46.4,75,74,NO,1600141355,16.11
rapid valley,44.06,-103.15,72,44,1,US,1600141355,5.82
vestmanna,62.16,-7.17,42.8,93,100,FO,1600141356,1.12
kuminskiy,58.67,66.57,53.13,76,100,RU,1600141356,7.72
victor harbor,-35.57,138.62,62.01,72,39,AU,1600141356,1.01
choya,52.01,86.55,65.97,42,57,RU,1600141356,2.08
dongying,37.46,118.49,76.19,66,98,CN,1600141355,6.38
mangai,-4.05,19.53,72.64,86,83,CD,1600141357,1.86
konevo,62.12,39.32,44.49,90,23,RU,1600141357,8.3
taoudenni,22.68,-3.98,97.57,12,67,ML,1600141358,9.22
porosozero,62.72,32.73,43.2,90,0,RU,1600141358,10.2
umm kaddadah,13.6,26.69,81.73,58,6,SD,1600141358,6.31
namibe,-15.2,12.15,61.07,87,25,AO,1600141358,1.83
assiniboia,49.63,-105.98,56.48,48,91,CA,1600141358,7.14
port shepstone,-30.74,30.45,60.1,84,100,ZA,1600141359,15.21
salamanca,-31.77,-70.97,56.61,59,0,CL,1600141359,0.81
ibotirama,-12.19,-43.22,69.44,65,64,BR,1600141419,3.38
hamilton,32.29,-64.78,82.4,83,75,BM,1600141420,19.46
kasongo-lunda,-6.47,16.82,73.06,81,81,CD,1600141420,2.51
saint-pierre,46.77,-56.17,56.86,69,53,PM,1600141420,20.8
hay river,60.82,-115.8,42.8,70,75,CA,1600141420,5.82
tilichiki,60.47,166.1,46.89,68,96,RU,1600141421,15.95
oneonta,42.45,-75.06,44.01,90,0,US,1600141421,3.83
baykit,61.67,96.37,60.1,56,85,RU,1600141421,2.95
madras,13.09,80.28,78.8,94,75,IN,1600141422,6.93
vardo,70.37,31.11,44.6,87,75,NO,1600141422,4.7
ixtapa,20.7,-105.2,82.4,88,90,MX,1600141422,1.12
odweyne,9.41,45.06,73.72,60,4,SO,1600141423,14.38
kaka,37.35,59.61,80.82,19,0,TM,1600141423,3.76
pacific grove,36.62,-121.92,60.01,91,11,US,1600141272,0.58
flin flon,54.77,-101.86,42.06,95,100,CA,1600141423,3.96
yelan-kolenovskiy,51.16,41.15,56.25,81,72,RU,1600141424,8.95
san rafael,-34.62,-68.33,56.37,35,0,AR,1600141424,11.5
gambela,8.25,34.58,68.9,88,14,ET,1600141424,3.65
derzhavinsk,51.1,66.32,60.64,42,100,KZ,1600141425,13.94
omaruru,-21.43,15.93,47.16,51,0,NA,1600141425,1.57
vila velha,-20.33,-40.29,71.6,78,0,BR,1600141374,8.05
quatre cocos,-20.21,57.76,68,68,75,MU,1600141426,11.41
balaipungut,1.05,101.28,84.2,74,93,ID,1600141426,8.05
gornopravdinsk,60.05,69.9,54.9,84,100,RU,1600141426,3.4
xian,34.26,108.93,77,53,83,CN,1600141427,8.95
north bend,43.41,-124.22,64.4,72,20,US,1600141427,5.82
kayerkan,69.35,87.76,51.8,93,100,RU,1600141427,11.18
alta gracia,-31.65,-64.43,55,36,0,AR,1600141427,5.82
mongo,12.18,18.69,71.96,87,60,TD,1600141428,1.05
omboue,-1.57,9.26,73,87,96,GA,1600141428,6.44
chimoio,-19.12,33.48,66.2,82,20,MZ,1600141428,2.24
farah,32.5,62.5,69.15,22,0,AF,1600141429,4.34
wasilla,61.58,-149.44,57.2,71,1,US,1600141429,0.94
lahij,13.17,44.58,85.93,51,1,YE,1600141429,3.78
puerto leguizamo,-0.19,-74.78,71.96,95,94,CO,1600141429,4.34
abha,18.22,42.51,64.4,59,0,SA,1600141429,4.21
kuruman,-27.45,23.43,44.89,46,0,ZA,1600141430,10.22
broken hill,-31.95,141.43,69.8,30,0,AU,1600141430,9.17
makabe,36.27,140.1,82.99,61,75,JP,1600141430,11.41
tendo,38.35,140.37,77,65,75,JP,1600141430,3.36
ormara,25.21,64.64,84.81,70,83,PK,1600141431,3.0
zemio,5.03,25.14,67.68,97,63,CF,1600141431,3.06
kochki,54.34,80.48,61.14,57,18,RU,1600141431,6.2
tooele,40.53,-112.3,72,24,1,US,1600141431,10.29
sesheke,-17.48,24.3,53.6,54,0,ZM,1600141432,3.36
canto do buriti,-8.11,-42.94,74.25,53,91,BR,1600141432,6.02
saldanha,-33.01,17.94,42.8,81,0,ZA,1600141432,4.7
aleppo,36.25,37.5,70.65,81,0,SY,1600141432,7.4
juntas,10.28,-84.96,75.7,86,100,CR,1600141433,0.74
fort nelson,58.81,-122.7,41,93,40,CA,1600141433,2.24
huambo,-12.78,15.74,53.91,45,0,AO,1600141481,3.69
krylovskaya,46.32,39.97,62.17,46,0,RU,1600141493,6.44
terney,45.05,136.61,59.45,79,99,RU,1600141493,7.61
antsohihy,-14.88,47.99,71.64,57,53,MG,1600141494,6.2
pingyi,35.5,117.63,77.58,68,73,CN,1600141494,8.77
goias,-15.58,-49.64,69.22,47,2,BR,1600141494,4.7
lagoa,39.05,-27.98,66.22,65,62,PT,1600141494,16.98
zheleznodorozhnyy,55.75,38,51.8,93,75,RU,1600141495,6.71
lannion,48.75,-3.42,60.8,82,100,FR,1600141495,7.83
whitehorse,60.72,-135.05,50,46,20,CA,1600141495,4.7
inhambane,-23.86,35.38,69.44,87,0,MZ,1600141495,5.97
sao joao da barra,-21.64,-41.05,71.01,83,0,BR,1600141402,13.58
barra do bugres,-15.07,-57.18,75.81,28,4,BR,1600141496,2.51
kimberley,-28.73,24.76,35.6,55,0,ZA,1600141496,2.24
fortuna,40.6,-124.16,62.01,93,75,US,1600141496,5.82
la ronge,55.1,-105.28,46.4,87,90,CA,1600141497,3.36
okakarara,-20.58,17.43,50.16,44,0,NA,1600141497,3.2
port lincoln,-34.73,135.87,59.23,68,46,AU,1600141497,8.7
huarmey,-10.07,-78.15,60.08,86,6,PE,1600141497,7.47
honiara,-9.43,159.95,78.8,94,90,SB,1600141497,10.29
krasnoselkup,65.7,82.47,55.74,81,79,RU,1600141498,13.6
palmas bellas,9.23,-80.09,78.8,88,97,PA,1600141498,3.36
maracaju,-21.61,-55.17,72.73,70,0,BR,1600141498,8.01
san matias,-16.37,-58.4,78.96,60,1,BO,1600141498,7.72
alexandria,38.8,-77.05,66.2,59,75,US,1600141499,10.29
bystrice nad pernstejnem,49.52,16.26,62.01,94,50,CZ,1600141499,3.11
baoding,38.85,115.49,66.38,95,100,CN,1600141499,5.75
arroio grande,-32.24,-53.09,43.92,85,15,BR,1600141499,2.86
andenes,69.31,16.12,48.2,87,100,NO,1600141500,3.36
kuandian,40.73,124.78,71.51,60,54,CN,1600141500,5.39
nanortalik,60.14,-45.24,42.98,77,100,GL,1600141500,42.32
kinablangan,7.69,126.55,77.65,89,100,PH,1600141501,6.82
zhoucheng,35.91,116.31,80.33,62,43,CN,1600141501,10.58
burnie,-41.07,145.92,54.68,68,99,AU,1600141501,12.64
udachnyy,66.42,112.4,53.6,54,4,RU,1600141501,4.47
